{"type":"FeatureCollection", "features": [
{"type":"Feature","geometry":{"type":"Point","coordinates":[-2.574190555081343,51.49480010625089]},"properties":{"Id":0,"StopID":"bstjgtp"}},
{"type":"Feature","geometry":{"type":"Point","coordinates":[-2.565635108848973,51.513138675030994]},"properties":{"Id":0,"StopID":""}},
{"type":"Feature","geometry":{"type":"Point","coordinates":[-2.4769758165456497,51.49946981435484]},"properties":{"Id":0,"StopID":""}},
{"type":"Feature","geometry":{"type":"Point","coordinates":[-2.4769570999589487,51.49937900698624]},"properties":{"Id":0,"StopID":""}},
{"type":"Feature","geometry":{"type":"Point","coordinates":[-2.5579105806206015,51.507313204684905]},"properties":{"Id":0,"StopID":"sglapwt"}},
{"type":"Feature","geometry":{"type":"Point","coordinates":[-2.5622426273255057,51.49026959664596]},"properties":{"Id":0,"StopID":"bstjtpt"}},
{"type":"Feature","geometry":{"type":"Point","coordinates":[-2.5625457532579294,51.49070267382801]},"properties":{"Id":0,"StopID":"bstjtma"}},
{"type":"Feature","geometry":{"type":"Point","coordinates":[-2.4681237709700983,51.49329991801638]},"properties":{"Id":0,"StopID":"sglpwgp"}},
{"type":"Feature","geometry":{"type":"Point","coordinates":[-2.4678732475312875,51.49408300721949]},"properties":{"Id":0,"StopID":"sglpwgm"}},
{"type":"Feature","geometry":{"type":"Point","coordinates":[-2.659400055020887,51.50222415125438]},"properties":{"Id":0,"StopID":"bstajaj"}},
{"type":"Feature","geometry":{"type":"Point","coordinates":[-2.6591634385365217,51.50209457321958]},"properties":{"Id":0,"StopID":"bstajam"}},
{"type":"Feature","geometry":{"type":"Point","coordinates":[-2.5656478989910827,51.51310387415431]},"properties":{"Id":0,"StopID":""}},
{"type":"Feature","geometry":{"type":"Point","coordinates":[-2.557227301051936,51.50684000620762]},"properties":{"Id":0,"StopID":"sglataj"}},
{"type":"Feature","geometry":{"type":"Point","coordinates":[-2.5737335330329594,51.49568288175526]},"properties":{"Id":0,"StopID":"bstjgwd"}},
{"type":"Feature","geometry":{"type":"Point","coordinates":[-2.546008653333374,51.499535993185]},"properties":{"Id":0,"StopID":"sglawmp"}},
{"type":"Feature","geometry":{"type":"Point","coordinates":[-2.5460440876947557,51.49967937407396]},"properties":{"Id":0,"StopID":"sglawmj"}},
{"type":"Feature","geometry":{"type":"Point","coordinates":[-2.5460928099415314,51.49981448257573]},"properties":{"Id":0,"StopID":"sglawmg"}},
{"type":"Feature","geometry":{"type":"Point","coordinates":[-2.5461238150077823,51.49996061989209]},"properties":{"Id":0,"StopID":"sglawmd"}},
{"type":"Feature","geometry":{"type":"Point","coordinates":[-2.5461592493691523,51.50009848485533]},"properties":{"Id":0,"StopID":"sglpmpm"}},
{"type":"Feature","geometry":{"type":"Point","coordinates":[-2.546185825140354,51.50028873781972]},"properties":{"Id":0,"StopID":"sglawma"}},
{"type":"Feature","geometry":{"type":"Point","coordinates":[-2.4866380571771463,51.48276560512184]},"properties":{"Id":0,"StopID":""}},
{"type":"Feature","geometry":{"type":"Point","coordinates":[-2.4861872110471945,51.482678949350465]},"properties":{"Id":0,"StopID":""}},
{"type":"Feature","geometry":{"type":"Point","coordinates":[-2.4845674929092794,51.48326820113264]},"properties":{"Id":0,"StopID":"sglgpjm"}},
{"type":"Feature","geometry":{"type":"Point","coordinates":[-2.4845229882414666,51.48319888573377]},"properties":{"Id":0,"StopID":"sglgpjg"}},
{"type":"Feature","geometry":{"type":"Point","coordinates":[-2.6885331903704275,51.489874330954656]},"properties":{"Id":0,"StopID":"bstadma"}},
{"type":"Feature","geometry":{"type":"Point","coordinates":[-2.4404276058010237,51.54060983893166]},"properties":{"Id":0,"StopID":""}},
{"type":"Feature","geometry":{"type":"Point","coordinates":[-2.5669938380864514,51.513141502722576]},"properties":{"Id":0,"StopID":""}}
]}