{"type":"FeatureCollection", "features": [
{"type":"Feature","geometry":{"type":"Point","coordinates":[-2.574190555081343,51.49480010625089]},"properties":{"StopID":"bstjgtp","Hub Name":"Filton Avenue (Horfield Library)"}},
{"type":"Feature","geometry":{"type":"Point","coordinates":[-2.5579105806206015,51.507313204684905]},"properties":{"StopID":"sglapwt","Hub Name":"Abbeywood Retail Park"}},
{"type":"Feature","geometry":{"type":"Point","coordinates":[-2.5622426273255057,51.49026959664596]},"properties":{"StopID":"bstjtpt","Hub Name":"Gainsborough Square"}},
{"type":"Feature","geometry":{"type":"Point","coordinates":[-2.5625457532579294,51.49070267382801]},"properties":{"StopID":"bstjtma","Hub Name":"Gainsborough Square"}},
{"type":"Feature","geometry":{"type":"Point","coordinates":[-2.4681237709700983,51.49329991801638]},"properties":{"StopID":"sglpwgp","Hub Name":"Lyde Green P&R"}},
{"type":"Feature","geometry":{"type":"Point","coordinates":[-2.4678732475312875,51.49408300721949]},"properties":{"StopID":"sglpwgm","Hub Name":"Lyde Green P&R"}},
{"type":"Feature","geometry":{"type":"Point","coordinates":[-2.659400055020887,51.50222415125438]},"properties":{"StopID":"bstajaj","Hub Name":"RidingLeaze"}},
{"type":"Feature","geometry":{"type":"Point","coordinates":[-2.6591634385365217,51.50209457321958]},"properties":{"StopID":"bstajam","Hub Name":"RidingLeaze"}},
{"type":"Feature","geometry":{"type":"Point","coordinates":[-2.557227301051936,51.50684000620762]},"properties":{"StopID":"sglataj","Hub Name":"Abbeywood Retail Park"}},
{"type":"Feature","geometry":{"type":"Point","coordinates":[-2.5737335330329594,51.49568288175526]},"properties":{"StopID":"bstjgwd","Hub Name":"Filton Avenue (Horfield Library)"}},
{"type":"Feature","geometry":{"type":"Point","coordinates":[-2.546008653333374,51.499535993185]},"properties":{"StopID":"sglawmp","Hub Name":"UWE Campus"}},
{"type":"Feature","geometry":{"type":"Point","coordinates":[-2.5460440876947557,51.49967937407396]},"properties":{"StopID":"sglawmj","Hub Name":"UWE Campus"}},
{"type":"Feature","geometry":{"type":"Point","coordinates":[-2.5460928099415314,51.49981448257573]},"properties":{"StopID":"sglawmg","Hub Name":"UWE Campus"}},
{"type":"Feature","geometry":{"type":"Point","coordinates":[-2.5461238150077823,51.49996061989209]},"properties":{"StopID":"sglawmd","Hub Name":"UWE Campus"}},
{"type":"Feature","geometry":{"type":"Point","coordinates":[-2.5461592493691523,51.50009848485533]},"properties":{"StopID":"sglpmpm","Hub Name":"UWE Campus"}},
{"type":"Feature","geometry":{"type":"Point","coordinates":[-2.546185825140354,51.50028873781972]},"properties":{"StopID":"sglawma","Hub Name":"UWE Campus"}},
{"type":"Feature","geometry":{"type":"Point","coordinates":[-2.4845674929092794,51.48326820113264]},"properties":{"StopID":"sglgpjm","Hub Name":"St James Place"}},
{"type":"Feature","geometry":{"type":"Point","coordinates":[-2.4845229882414666,51.48319888573377]},"properties":{"StopID":"sglgpjg","Hub Name":"St James Place"}},
{"type":"Feature","geometry":{"type":"Point","coordinates":[-2.6885331903704275,51.489874330954656]},"properties":{"StopID":"bstadma","Hub Name":"Portway P&R"}}
]}